City_ID,City,Lat,Lng,Max Temp,Humidity,Cloudiness,Wind Speed,Country,Weather Description,Date
0,Luderitz,-26.6481,15.1594,55.29,75,0,15.12,NA,clear sky,2022-10-04 22:53:29
1,Tomatlan,19.9333,-105.25,81.55,78,55,6.2,MX,broken clouds,2022-10-04 22:53:30
2,Clyde River,70.4692,-68.5914,26.83,86,100,17.27,CA,overcast clouds,2022-10-04 22:53:30
3,Coahuayana,18.7333,-103.6833,82.67,77,69,3.98,MX,broken clouds,2022-10-04 22:53:31
4,Hamilton,39.1834,-84.5333,71.04,39,0,9.22,US,clear sky,2022-10-04 22:49:04
5,Ponta Do Sol,32.6667,-17.1,72.72,76,61,0.69,PT,broken clouds,2022-10-04 22:53:32
6,Westport,41.1415,-73.3579,57.88,88,100,8.99,US,overcast clouds,2022-10-04 22:52:06
7,Ushuaia,-54.8,-68.3,51.46,54,40,10.36,AR,scattered clouds,2022-10-04 22:51:33
8,Butaritari,3.0707,172.7902,80.89,79,13,15.08,KI,light rain,2022-10-04 22:53:33
9,Bambous Virieux,-20.3428,57.7575,70.21,83,40,6.91,MU,scattered clouds,2022-10-04 22:53:33
10,Cabo San Lucas,22.8909,-109.9124,90.61,65,0,4.88,MX,clear sky,2022-10-04 22:48:42
11,Lagoa,39.05,-27.9833,70.09,86,100,11.5,PT,light rain,2022-10-04 22:53:34
12,Codrington,-38.2667,141.9667,51.26,95,100,18.84,AU,light rain,2022-10-04 22:53:34
13,Northam,51.0333,-4.2167,61.39,93,100,21.81,GB,overcast clouds,2022-10-04 22:53:35
14,Joacaba,-27.1781,-51.5047,59.47,89,1,1.77,BR,clear sky,2022-10-04 22:53:35
15,Saskylakh,71.9167,114.0833,22.91,97,100,4.54,RU,light snow,2022-10-04 22:53:35
16,Vaini,-21.2,-175.2,82.56,78,75,5.75,TO,broken clouds,2022-10-04 22:53:36
17,Karratha,-20.7377,116.8463,71.69,37,0,4.54,AU,clear sky,2022-10-04 22:53:36
18,Yellowknife,62.456,-114.3525,39.72,60,100,11.5,CA,overcast clouds,2022-10-04 22:53:36
19,Barrow,71.2906,-156.7887,30.63,71,90,3.78,US,overcast clouds,2022-10-04 22:53:37
20,Severo-Kurilsk,50.6789,156.125,48.58,94,100,19.13,RU,light rain,2022-10-04 22:53:37
21,Yining,29.0361,114.5636,60.57,80,99,5.06,CN,overcast clouds,2022-10-04 22:53:38
22,Avarua,-21.2078,-159.775,78.85,69,20,19.57,CK,few clouds,2022-10-04 22:53:38
23,Hobart,-42.8794,147.3294,50.25,75,75,8.05,AU,broken clouds,2022-10-04 22:49:57
24,Eslov,55.8393,13.3039,57.22,90,100,11.14,SE,overcast clouds,2022-10-04 22:53:39
25,Paoua,7.2427,16.4406,67.62,96,94,2.59,CF,overcast clouds,2022-10-04 22:53:39
26,Moron,-34.6534,-58.6198,62.02,82,0,10.33,AR,clear sky,2022-10-04 22:53:40
27,Kalmunai,7.4167,81.8167,80.4,73,100,3.56,LK,overcast clouds,2022-10-04 22:53:40
28,Majene,-3.5403,118.9707,78.53,85,100,3.76,ID,overcast clouds,2022-10-04 22:53:40
29,Victoria,22.2855,114.1577,86.18,86,55,8.01,HK,broken clouds,2022-10-04 22:52:15
30,Albany,42.6001,-73.9662,53.4,70,100,3.31,US,overcast clouds,2022-10-04 22:52:54
31,Henties Bay,-22.116,14.2845,53.6,93,2,2.59,NA,clear sky,2022-10-04 22:53:41
32,Olafsvik,64.8945,-23.7142,41.13,92,100,30.33,IS,overcast clouds,2022-10-04 22:53:41
33,Bathsheba,13.2167,-59.5167,81.21,89,20,24.16,BB,few clouds,2022-10-04 22:53:41
34,Coquimbo,-29.9533,-71.3436,56.93,71,20,9.22,CL,few clouds,2022-10-04 22:51:13
35,College,64.8569,-147.8028,52.81,55,75,9.22,US,broken clouds,2022-10-04 22:52:12
36,Cherskiy,68.75,161.3,24.46,70,19,5.01,RU,few clouds,2022-10-04 22:53:42
37,Rikitea,-23.1203,-134.9692,69.8,64,63,23.85,PF,broken clouds,2022-10-04 22:53:43
38,Acajutla,13.5928,-89.8275,81.77,79,91,6.38,SV,overcast clouds,2022-10-04 22:53:43
39,Fecamp,49.7579,0.3746,61.68,88,95,13.0,FR,overcast clouds,2022-10-04 22:53:43
40,Acapulco,16.8634,-99.8901,83.46,74,32,7.38,MX,scattered clouds,2022-10-04 22:53:07
41,Altay,47.8667,88.1167,38.14,34,19,6.93,CN,few clouds,2022-10-04 22:53:44
42,Arman,59.7,150.1667,28.02,73,100,12.5,RU,overcast clouds,2022-10-04 22:53:44
43,Neryungri,56.6709,124.6491,22.33,87,100,13.24,RU,light snow,2022-10-04 22:53:45
44,Xining,36.6167,101.7667,47.88,83,100,2.77,CN,overcast clouds,2022-10-04 22:53:45
45,Thinadhoo,0.5333,72.9333,80.91,78,100,18.03,MV,overcast clouds,2022-10-04 22:53:45
46,Kapaa,22.0752,-159.319,84.52,71,75,14.97,US,light rain,2022-10-04 22:53:46
47,Port Alfred,-33.5906,26.891,59.18,90,98,1.01,ZA,overcast clouds,2022-10-04 22:53:46
48,Tasiilaq,65.6145,-37.6368,21.63,67,40,7.29,GL,scattered clouds,2022-10-04 22:53:46
49,Chernyshevskiy,63.0128,112.4714,26.73,91,99,10.6,RU,light snow,2022-10-04 22:53:47
50,Dikson,73.5069,80.5464,33.39,83,100,17.18,RU,overcast clouds,2022-10-04 22:53:47
51,Puerto Ayora,-0.7393,-90.3518,76.96,90,83,8.01,EC,broken clouds,2022-10-04 22:53:47
52,Port Hardy,50.6996,-127.4199,59.18,77,75,8.05,CA,broken clouds,2022-10-04 22:53:48
53,Rosetta,31.4044,30.4164,75.34,70,1,7.49,EG,clear sky,2022-10-04 22:53:48
54,Hilo,19.7297,-155.09,86.29,77,2,5.99,US,clear sky,2022-10-04 22:53:48
55,Busselton,-33.65,115.3333,56.07,76,85,13.53,AU,overcast clouds,2022-10-04 22:53:49
56,Barahona,18.2085,-71.1008,85.82,84,40,9.22,DO,scattered clouds,2022-10-04 22:53:49
57,Chuy,-33.6971,-53.4616,53.71,89,10,6.46,UY,clear sky,2022-10-04 22:51:11
58,Jamestown,42.097,-79.2353,56.84,54,100,6.91,US,overcast clouds,2022-10-04 22:49:00
59,Mataura,-46.1927,168.8643,40.48,98,100,11.21,NZ,light rain,2022-10-04 22:53:50
60,Arraial Do Cabo,-22.9661,-42.0278,71.46,83,75,5.75,BR,broken clouds,2022-10-04 22:53:50
61,Lebu,-37.6167,-73.65,51.03,94,24,7.31,CL,few clouds,2022-10-04 22:53:51
62,Punta Arenas,-53.15,-70.9167,51.91,62,0,16.11,CL,clear sky,2022-10-04 22:53:51
63,Bonavista,48.6499,-53.1147,53.13,72,2,19.19,CA,clear sky,2022-10-04 22:53:51
64,Havoysund,70.9963,24.6622,43.03,80,3,15.9,NO,clear sky,2022-10-04 22:53:52
65,Faanui,-16.4833,-151.75,77.68,76,28,25.64,PF,light rain,2022-10-04 22:53:52
66,Atuona,-9.8,-139.0333,76.84,69,18,20.56,PF,few clouds,2022-10-04 22:53:52
67,Flinders,-34.5833,150.8552,61.38,80,100,3.0,AU,moderate rain,2022-10-04 22:53:53
68,Castro,-24.7911,-50.0119,58.84,83,0,1.45,BR,clear sky,2022-10-04 22:53:53
69,Torbay,47.6666,-52.7314,52.27,82,20,18.41,CA,few clouds,2022-10-04 22:53:53
70,Bendigo,-36.7667,144.2833,51.85,65,100,4.0,AU,moderate rain,2022-10-04 22:50:24
71,Husavik,66.0449,-17.3389,41.7,98,100,15.88,IS,overcast clouds,2022-10-04 22:53:55
72,Elat,29.5581,34.9482,82.24,47,0,3.44,IL,clear sky,2022-10-04 22:53:55
73,Longyearbyen,78.2186,15.6401,33.67,90,79,6.62,SJ,broken clouds,2022-10-04 22:53:56
74,Borujerd,33.8973,48.7516,61.5,23,0,5.48,IR,clear sky,2022-10-04 22:53:56
75,Dingle,10.9995,122.6711,78.55,88,100,5.5,PH,overcast clouds,2022-10-04 22:53:56
76,Saint-Philippe,-21.3585,55.7679,65.79,78,41,10.74,RE,scattered clouds,2022-10-04 22:53:57
77,Talcahuano,-36.7167,-73.1167,53.28,94,75,9.22,CL,broken clouds,2022-10-04 22:53:57
78,Qaanaaq,77.484,-69.3632,15.24,76,99,4.94,GL,overcast clouds,2022-10-04 22:53:58
79,Mar Del Plata,-38.0023,-57.5575,58.08,78,21,14.97,AR,light rain,2022-10-04 22:53:58
80,Bilibino,68.0546,166.4372,22.08,75,66,4.09,RU,broken clouds,2022-10-04 22:53:58
81,Port Elizabeth,-33.918,25.5701,58.32,91,0,2.3,ZA,clear sky,2022-10-04 22:53:59
82,Yarim,14.298,44.3779,55.22,61,12,0.83,YE,few clouds,2022-10-04 22:53:59
83,Poum,-20.2333,164.0167,73.24,64,6,8.34,NC,clear sky,2022-10-04 22:54:00
84,Dudinka,69.4058,86.1778,33.62,99,100,4.76,RU,light snow,2022-10-04 22:54:00
85,Genhe,50.7833,121.5167,21.97,50,68,1.88,CN,broken clouds,2022-10-04 22:54:01
86,East London,-33.0153,27.9116,62.2,81,44,11.14,ZA,scattered clouds,2022-10-04 22:51:46
87,Gopalpur,19.2667,84.9167,79.61,87,100,4.99,IN,overcast clouds,2022-10-04 22:54:02
88,Kibondo,-3.5864,30.7203,65.25,58,65,1.77,TZ,broken clouds,2022-10-04 22:54:02
89,Lavrentiya,65.5833,-171.0,37.44,68,14,5.48,RU,few clouds,2022-10-04 22:54:03
90,San Ramon,37.7799,-121.978,85.21,53,0,11.5,US,clear sky,2022-10-04 22:49:47
91,Skibotn,69.3913,20.2679,44.8,92,68,21.85,NO,broken clouds,2022-10-04 22:54:03
92,Rafsanjan,30.4067,55.9939,72.01,18,0,1.54,IR,clear sky,2022-10-04 22:54:04
93,Mangrol,21.1167,70.1167,79.18,79,54,9.69,IN,broken clouds,2022-10-04 22:54:04
94,Tiksi,71.6872,128.8694,21.13,86,100,14.23,RU,overcast clouds,2022-10-04 22:54:05
95,Port-Gentil,-0.7193,8.7815,78.76,78,40,9.22,GA,scattered clouds,2022-10-04 22:54:05
96,Hillsboro,45.5229,-122.9898,65.68,77,20,3.44,US,few clouds,2022-10-04 22:51:47
97,Adrar,20.5022,-10.0711,94.66,16,23,11.27,MR,few clouds,2022-10-04 22:54:05
98,Bokovskaya,49.229,41.8306,55.11,82,55,5.64,RU,broken clouds,2022-10-04 22:54:06
99,Tuktoyaktuk,69.4541,-133.0374,33.8,86,20,14.97,CA,few clouds,2022-10-04 22:54:06
100,Soyo,-6.1349,12.3689,75.36,87,28,6.33,AO,scattered clouds,2022-10-04 22:54:09
101,Kruisfontein,-34.0033,24.7314,51.89,88,64,1.61,ZA,broken clouds,2022-10-04 22:54:10
102,Kapiri Mposhi,-13.9652,28.6809,67.75,35,0,4.97,ZM,clear sky,2022-10-04 22:54:11
103,Zemio,5.0314,25.1361,66.69,93,97,0.98,CF,overcast clouds,2022-10-04 22:54:12
104,Christchurch,-43.5333,172.6333,42.91,89,75,13.8,NZ,light rain,2022-10-04 22:54:12
105,Wanning,18.8003,110.3967,79.32,88,62,5.73,CN,broken clouds,2022-10-04 22:54:13
106,Yomou,7.5603,-9.2653,69.89,98,80,2.33,GN,light rain,2022-10-04 22:54:13
107,Turayf,31.6725,38.6637,70.05,30,0,5.75,SA,clear sky,2022-10-04 22:54:14
108,Beloha,-25.1667,45.05,65.61,96,2,0.78,MG,clear sky,2022-10-04 22:54:14
109,Chokurdakh,70.6333,147.9167,22.03,91,99,6.58,RU,overcast clouds,2022-10-04 22:54:15
110,Bredasdorp,-34.5322,20.0403,48.6,82,3,3.78,ZA,clear sky,2022-10-04 22:54:15
111,Saint George,37.1041,-113.5841,88.25,24,0,1.01,US,clear sky,2022-10-04 22:54:15
112,Sherbrooke,45.4001,-71.8991,61.0,44,20,3.44,CA,few clouds,2022-10-04 22:54:16
113,Innisfail,-17.5333,146.0333,77.41,74,94,9.33,AU,overcast clouds,2022-10-04 22:54:16
114,Mvuma,-19.2792,30.5283,65.52,31,0,7.96,ZW,clear sky,2022-10-04 22:54:17
115,Oostkamp,51.1188,3.231,60.62,80,100,7.0,BE,overcast clouds,2022-10-04 22:54:17
116,Kodiak,57.79,-152.4072,53.11,94,100,19.57,US,moderate rain,2022-10-04 22:54:17
117,New Norfolk,-42.7826,147.0587,49.91,62,98,1.01,AU,overcast clouds,2022-10-04 22:54:18
118,Thompson,55.7435,-97.8558,57.36,44,40,5.75,CA,scattered clouds,2022-10-04 22:54:18
119,Mitu,1.1983,-70.1733,79.45,71,72,1.43,CO,broken clouds,2022-10-04 22:54:19
120,Mayo,38.8876,-76.5119,52.68,95,100,4.0,US,overcast clouds,2022-10-04 22:54:19
121,Sept-Iles,50.2001,-66.3821,50.52,83,100,4.61,CA,moderate rain,2022-10-04 22:52:43
122,Tabuk,17.4189,121.4443,76.21,90,51,1.1,PH,broken clouds,2022-10-04 22:54:20
123,Otofuke,42.9917,143.2003,49.96,73,49,16.58,JP,scattered clouds,2022-10-04 22:54:20
124,Sinnamary,5.3833,-52.95,79.75,81,54,12.26,GF,broken clouds,2022-10-04 22:54:20
125,Akyab,20.15,92.9,77.11,89,89,7.07,MM,overcast clouds,2022-10-04 22:54:21
126,Carnarvon,-24.8667,113.6333,66.87,75,1,10.0,AU,clear sky,2022-10-04 22:54:22
127,Norman Wells,65.282,-126.8329,39.24,81,75,12.66,CA,broken clouds,2022-10-04 22:54:22
128,Namyslow,51.0759,17.7228,46.33,90,60,6.02,PL,broken clouds,2022-10-04 22:54:23
129,Byron Bay,-28.65,153.6167,70.95,57,100,6.2,AU,overcast clouds,2022-10-04 22:54:23
130,Batticaloa,7.7102,81.6924,79.95,75,100,4.65,LK,overcast clouds,2022-10-04 22:54:24
131,Ulaangom,49.9811,92.0667,27.0,59,0,1.54,MN,clear sky,2022-10-04 22:54:24
132,Spisska Nova Ves,48.9446,20.5615,38.39,88,21,2.26,SK,few clouds,2022-10-04 22:54:24
133,Mehriz,31.5917,54.4318,68.5,20,1,0.63,IR,clear sky,2022-10-04 22:54:25
134,Georgetown,5.4112,100.3354,78.89,94,20,0.0,MY,few clouds,2022-10-04 22:49:35
135,Charters Towers,-20.1,146.2667,74.01,62,100,13.13,AU,overcast clouds,2022-10-04 22:54:25
136,Slave Lake,55.2834,-114.769,60.78,63,0,5.75,CA,clear sky,2022-10-04 22:54:25
137,Bluff,-46.6,168.3333,40.8,77,96,26.98,NZ,overcast clouds,2022-10-04 22:54:26
138,Gusau,12.1628,6.6614,78.49,71,95,6.55,NG,overcast clouds,2022-10-04 22:54:26
139,Vaitape,-16.5167,-151.75,77.67,76,29,25.7,PF,light rain,2022-10-04 22:52:58
140,Ninghai,29.2892,121.4247,64.76,83,92,7.49,CN,overcast clouds,2022-10-04 22:54:27
141,Umm Lajj,25.0213,37.2685,85.17,44,0,5.64,SA,clear sky,2022-10-04 22:54:27
142,Ruyigi,-3.45,30.3167,65.19,56,91,2.3,BI,overcast clouds,2022-10-04 22:54:27
143,Mitsamiouli,-11.3847,43.2844,75.07,79,15,3.89,KM,few clouds,2022-10-04 22:54:28
144,Vestmannaeyjar,63.4427,-20.2734,44.67,77,100,28.81,IS,overcast clouds,2022-10-04 22:54:28
145,Bentiu,9.2333,29.8333,71.62,90,95,1.05,SS,overcast clouds,2022-10-04 22:54:28
146,Sioux Lookout,50.1001,-91.917,60.87,88,100,3.44,CA,overcast clouds,2022-10-04 22:54:29
147,Cape Town,-33.9258,18.4232,61.38,59,0,5.75,ZA,clear sky,2022-10-04 22:53:30
148,Avera,33.194,-82.5271,73.45,47,0,3.98,US,clear sky,2022-10-04 22:54:29
149,Lompoc,34.6391,-120.4579,85.01,71,20,11.5,US,few clouds,2022-10-04 22:53:18
150,Guerrero Negro,27.9769,-114.0611,74.7,66,17,11.48,MX,few clouds,2022-10-04 22:54:30
151,Sao Filipe,14.8961,-24.4956,78.21,78,99,1.43,CV,overcast clouds,2022-10-04 22:54:30
152,Hermanus,-34.4187,19.2345,52.81,69,21,1.1,ZA,few clouds,2022-10-04 22:54:13
153,Sorland,67.667,12.6934,49.86,88,100,16.15,NO,light rain,2022-10-04 22:54:31
154,Camopi,3.1655,-52.3158,79.68,70,88,5.17,GF,overcast clouds,2022-10-04 22:54:31
155,Muros,42.7762,-9.0603,59.16,92,9,3.04,ES,clear sky,2022-10-04 22:54:32
156,Ngorongoro,-3.2397,35.4875,51.82,72,92,6.33,TZ,overcast clouds,2022-10-04 22:54:32
157,Ilulissat,69.2167,-51.1,19.09,76,15,6.42,GL,few clouds,2022-10-04 22:54:33
158,Kortkeros,61.8106,51.5806,48.2,90,100,6.33,RU,overcast clouds,2022-10-04 22:54:33
159,Penzance,50.1186,-5.5371,61.48,94,100,26.62,GB,overcast clouds,2022-10-04 22:54:33
160,Tamandare,-8.7597,-35.1047,74.82,77,4,6.15,BR,clear sky,2022-10-04 22:54:34
161,Naze,28.3667,129.4833,76.12,80,4,6.29,JP,clear sky,2022-10-04 22:54:34
162,Pisco,-13.7,-76.2167,62.65,72,0,18.41,PE,clear sky,2022-10-04 22:54:34
163,Gao,16.6362,1.637,93.07,21,68,9.62,ML,broken clouds,2022-10-04 22:54:35
164,Jiaxing,30.7522,120.75,62.35,72,100,8.57,CN,overcast clouds,2022-10-04 22:49:37
165,Elko,41.0002,-115.5012,75.22,19,0,5.01,US,clear sky,2022-10-04 22:54:35
166,Marsh Harbour,26.5412,-77.0636,79.32,72,19,8.97,BS,few clouds,2022-10-04 22:54:36
167,Dano,11.15,-3.0667,75.29,75,63,6.58,BF,light rain,2022-10-04 22:54:36
168,Sikeston,36.8767,-89.5879,76.89,25,0,5.75,US,clear sky,2022-10-04 22:54:36
169,Laje,-10.1833,-40.9667,77.27,21,22,3.96,BR,few clouds,2022-10-04 22:54:37
170,Oistins,13.0667,-59.5333,80.69,89,20,24.16,BB,few clouds,2022-10-04 22:54:37
171,Caborca,30.5838,-111.101,84.97,34,0,9.48,MX,clear sky,2022-10-04 22:54:37
172,Paamiut,61.994,-49.6678,37.13,97,100,27.72,GL,light rain,2022-10-04 22:54:38
173,Saint-Augustin,51.226,-58.6502,54.48,71,100,11.72,CA,overcast clouds,2022-10-04 22:54:38
174,Komsomolskiy,40.4272,71.7189,61.52,33,36,6.91,UZ,scattered clouds,2022-10-04 22:54:39
175,Ancud,-41.8697,-73.8203,48.43,90,28,6.85,CL,light rain,2022-10-04 22:54:39
176,Dalvik,65.9702,-18.5286,42.73,98,100,6.91,IS,overcast clouds,2022-10-04 22:54:39
177,Waipawa,-41.4122,175.5153,54.52,70,33,21.61,NZ,scattered clouds,2022-10-04 22:54:40
178,Hithadhoo,-0.6,73.0833,82.44,70,99,19.08,MV,overcast clouds,2022-10-04 22:54:40
179,Sabang,5.8933,95.3214,76.59,87,100,13.18,ID,overcast clouds,2022-10-04 22:54:40
180,Ukiah,39.1502,-123.2078,91.44,39,0,5.01,US,clear sky,2022-10-04 22:54:41
181,Kavieng,-2.5744,150.7967,83.89,73,84,15.77,PG,broken clouds,2022-10-04 22:54:41
182,Meulaboh,4.1363,96.1285,73.38,97,100,3.6,ID,overcast clouds,2022-10-04 22:54:42
183,Norrtalje,59.758,18.705,55.02,87,96,7.23,SE,light rain,2022-10-04 22:54:42
184,Cabedelo,-6.9811,-34.8339,77.67,77,46,10.85,BR,scattered clouds,2022-10-04 22:54:43
185,Kolda,12.8833,-14.95,77.74,90,22,5.48,SN,few clouds,2022-10-04 22:54:43
186,Juba,4.8517,31.5825,69.15,92,83,1.25,SS,light rain,2022-10-04 22:54:43
187,Opuwo,-18.0607,13.84,71.11,32,0,4.12,NA,clear sky,2022-10-04 22:54:44
188,Yarmouth,41.7057,-70.2286,60.94,94,100,16.11,US,light rain,2022-10-04 22:51:36
189,Ulagan,50.6321,87.9563,23.77,69,8,0.92,RU,clear sky,2022-10-04 22:54:45
190,Cockburn Town,21.4612,-71.1419,83.91,70,62,5.44,TC,broken clouds,2022-10-04 22:54:45
191,Santa Maria,-29.6842,-53.8069,60.1,59,0,8.05,BR,clear sky,2022-10-04 22:52:29
192,Wanaka,-44.7,169.15,39.94,60,69,6.64,NZ,broken clouds,2022-10-04 22:53:04
193,Tuatapere,-46.1333,167.6833,37.72,86,99,20.09,NZ,light rain,2022-10-04 22:50:11
194,Marawi,7.9986,124.2928,71.37,90,65,1.68,PH,broken clouds,2022-10-04 22:54:46
195,Port Hedland,-20.3167,118.5667,68.05,100,3,0.0,AU,clear sky,2022-10-04 22:54:46
196,Yatou,37.15,122.3833,50.14,56,8,18.19,CN,clear sky,2022-10-04 22:54:46
197,Preobrazheniye,42.9019,133.9064,40.71,47,2,4.99,RU,clear sky,2022-10-04 22:54:47
198,Khatanga,71.9667,102.5,25.56,97,100,4.54,RU,light snow,2022-10-04 22:54:47
199,Provideniya,64.3833,-173.3,41.36,65,75,4.47,RU,broken clouds,2022-10-04 22:54:48
200,Bethel,41.3712,-73.414,54.45,86,100,10.36,US,overcast clouds,2022-10-04 22:52:33
201,Alice Springs,-23.7,133.8833,67.55,60,15,5.75,AU,few clouds,2022-10-04 22:54:48
202,Katsuura,35.1333,140.3,77.02,77,95,10.04,JP,light rain,2022-10-04 22:54:48
203,Kobayashi,31.9833,130.9833,74.7,92,84,4.65,JP,broken clouds,2022-10-04 22:54:49
204,Shagonar,51.5333,92.8,29.82,63,0,1.34,RU,clear sky,2022-10-04 22:54:49
205,Berlevag,70.8578,29.0864,42.8,81,100,8.05,NO,overcast clouds,2022-10-04 22:54:49
206,Pyshchug,58.8873,45.7134,44.71,82,88,7.7,RU,overcast clouds,2022-10-04 22:54:50
207,Dharmapuri,12.1333,78.1667,74.34,70,98,2.75,IN,overcast clouds,2022-10-04 22:54:50
208,El Alto,-4.2714,-81.2147,65.86,80,66,23.44,PE,broken clouds,2022-10-04 22:54:51
209,Klaksvik,62.2266,-6.589,47.32,78,2,39.06,FO,clear sky,2022-10-04 22:54:51
210,Chapais,49.7834,-74.8492,49.78,99,100,3.27,CA,overcast clouds,2022-10-04 22:54:52
211,Chokwe,-24.5333,32.9833,72.5,78,99,9.22,MZ,overcast clouds,2022-10-04 22:54:52
212,Ruidoso,33.3317,-105.673,68.14,56,79,8.05,US,broken clouds,2022-10-04 22:54:52
213,Lata,40.1629,-8.3327,59.92,68,0,1.74,PT,clear sky,2022-10-04 22:54:53
214,Kerema,-7.9631,145.7785,83.14,78,100,6.24,PG,overcast clouds,2022-10-04 22:54:53
215,Tura,25.5198,90.2201,71.15,90,81,1.72,IN,broken clouds,2022-10-04 22:54:54
216,Hofn,64.2539,-15.2082,45.59,86,100,5.41,IS,overcast clouds,2022-10-04 22:54:54
217,Sitka,57.0531,-135.33,61.92,49,100,6.53,US,overcast clouds,2022-10-04 22:54:54
218,Hovd,48.0056,91.6419,26.26,35,16,1.19,MN,few clouds,2022-10-04 22:54:55
219,Huarmey,-10.0681,-78.1522,63.41,78,22,10.85,PE,few clouds,2022-10-04 22:54:55
220,Lorengau,-2.0226,147.2712,83.14,79,83,10.87,PG,broken clouds,2022-10-04 22:54:56
221,San Carlos De Bariloche,-41.1456,-71.3082,47.95,66,40,16.11,AR,scattered clouds,2022-10-04 22:53:27
222,Namatanai,-3.6667,152.4333,83.64,71,99,12.35,PG,overcast clouds,2022-10-04 22:54:56
223,Leningradskiy,69.3833,178.4167,23.67,86,81,5.44,RU,broken clouds,2022-10-04 22:54:56
224,Bandarbeyla,9.4942,50.8122,76.6,87,86,18.57,SO,overcast clouds,2022-10-04 22:54:57
225,Kahului,20.8947,-156.47,84.22,75,40,19.57,US,scattered clouds,2022-10-04 22:52:50
226,Vryheid,-27.7695,30.7917,57.33,91,100,5.86,ZA,overcast clouds,2022-10-04 22:54:57
227,Palmer,42.1584,-72.3287,57.24,79,100,12.66,US,overcast clouds,2022-10-04 22:54:58
228,Shu,43.5983,73.7614,50.97,45,1,7.05,KZ,clear sky,2022-10-04 22:54:59
229,Alma,48.5501,-71.6491,60.01,67,91,1.14,CA,overcast clouds,2022-10-04 22:54:59
230,Myitkyina,25.3833,97.4,73.08,100,100,1.12,MM,overcast clouds,2022-10-04 22:55:00
231,Broken Hill,-31.95,141.4333,70.2,64,23,18.25,AU,few clouds,2022-10-04 22:55:00
232,Rancho Palos Verdes,33.7445,-118.387,88.05,76,0,12.66,US,clear sky,2022-10-04 22:55:00
233,Ust-Maya,60.4167,134.5333,23.68,69,98,9.51,RU,overcast clouds,2022-10-04 22:55:01
234,Galle,6.0367,80.217,77.86,88,100,12.1,LK,overcast clouds,2022-10-04 22:55:01
235,Ghanzi,-21.5667,21.7833,76.39,14,0,7.25,BW,clear sky,2022-10-04 22:55:02
236,Saint-Francois,46.4154,3.9054,48.67,100,100,2.3,FR,fog,2022-10-04 22:55:02
237,Poso,-1.3959,120.7524,78.53,78,100,3.22,ID,overcast clouds,2022-10-04 22:55:03
238,Adeje,28.1227,-16.726,81.48,71,40,20.71,ES,scattered clouds,2022-10-04 22:55:04
239,Gornopravdinsk,60.05,69.9,43.88,94,100,4.27,RU,light rain,2022-10-04 22:55:04
240,Hirara,24.8,125.2833,78.66,94,20,5.75,JP,few clouds,2022-10-04 22:55:05
241,Hungund,16.0667,76.05,74.34,75,100,6.46,IN,overcast clouds,2022-10-04 22:55:05
242,Fortuna,40.5982,-124.1573,67.93,71,75,1.99,US,broken clouds,2022-10-04 22:55:06
243,Cidreira,-30.1811,-50.2056,59.23,84,0,6.78,BR,clear sky,2022-10-04 22:55:07
244,Upernavik,72.7868,-56.1549,20.82,81,63,6.02,GL,broken clouds,2022-10-04 22:55:07
245,Mnogovershinnyy,53.9353,139.9242,28.0,74,71,12.21,RU,broken clouds,2022-10-04 22:55:07
246,Reinosa,42.9996,-4.138,54.46,73,0,3.87,ES,clear sky,2022-10-04 22:55:08
247,Dangriga,16.9692,-88.2321,80.46,77,41,12.75,BZ,scattered clouds,2022-10-04 22:50:18
248,Bure,10.7,37.0667,54.09,94,48,3.65,ET,light rain,2022-10-04 22:55:09
249,Saint-Pierre,-21.3393,55.4781,65.88,77,20,0.0,RE,few clouds,2022-10-04 22:55:09
250,Minsk,53.9,27.5667,46.15,91,39,14.14,BY,scattered clouds,2022-10-04 22:54:10
251,Calvinia,-31.4707,19.776,51.39,45,1,1.72,ZA,clear sky,2022-10-04 22:55:10
252,Yarada,17.65,83.2667,80.49,84,100,5.1,IN,overcast clouds,2022-10-04 22:55:11
253,Coihaique,-45.5752,-72.0662,51.75,54,75,6.91,CL,broken clouds,2022-10-04 22:55:11
254,Mamallapuram,12.6264,80.1722,86.05,73,100,2.68,IN,overcast clouds,2022-10-04 22:55:12
255,Buraydah,26.326,43.975,81.05,19,0,10.18,SA,clear sky,2022-10-04 22:55:12
256,Songjianghe,42.1859,127.479,31.62,51,0,0.4,CN,clear sky,2022-10-04 22:55:13
257,Catuday,16.2923,119.8062,79.88,81,98,4.43,PH,overcast clouds,2022-10-04 22:55:13
258,Hunterville,-39.9333,175.5667,53.69,71,52,14.36,NZ,broken clouds,2022-10-04 22:55:13
259,Puerto Escondido,15.85,-97.0667,83.16,71,28,3.24,MX,scattered clouds,2022-10-04 22:55:14
260,Esperance,-33.8667,121.9,59.05,77,6,19.28,AU,clear sky,2022-10-04 22:55:14
261,Baykit,61.67,96.37,26.51,87,61,4.27,RU,broken clouds,2022-10-04 22:55:14
262,Ruteng,-8.6136,120.4721,65.68,88,97,1.39,ID,overcast clouds,2022-10-04 22:55:15
263,Agadez,19.75,10.25,84.67,17,0,11.43,NE,clear sky,2022-10-04 22:55:16
264,Lovozero,68.005,35.0117,39.4,98,100,1.52,RU,overcast clouds,2022-10-04 22:55:16
265,Samarai,-10.6167,150.6667,81.43,83,91,16.62,PG,light rain,2022-10-04 22:55:16
266,Tiznit,29.5833,-9.5,71.38,40,9,4.92,MA,clear sky,2022-10-04 22:55:17
267,Fairlie,55.756,-4.8556,55.31,92,100,1.01,GB,moderate rain,2022-10-04 22:55:17
268,Kenora,49.8167,-94.4337,68.97,56,75,4.61,CA,broken clouds,2022-10-04 22:51:38
269,Lazaro Cardenas,17.9583,-102.2,82.69,78,90,6.76,MX,overcast clouds,2022-10-04 22:55:18
270,Staryy Nadym,65.6118,72.6842,34.92,92,66,12.73,RU,broken clouds,2022-10-04 22:55:18
271,Kingsville,27.5159,-97.8561,84.16,49,75,8.05,US,broken clouds,2022-10-04 22:55:18
272,Rio Grande,-32.035,-52.0986,57.31,89,1,8.21,BR,clear sky,2022-10-04 22:55:19
273,Garh Maharaja,30.8339,71.9053,79.09,32,0,4.09,PK,clear sky,2022-10-04 22:55:19
274,Quelimane,-17.8786,36.8883,75.15,88,0,8.05,MZ,clear sky,2022-10-04 22:55:08
275,Viransehir,37.2353,39.7631,77.32,27,59,7.72,TR,broken clouds,2022-10-04 22:55:20
276,Kayiry,46.9454,33.7059,53.49,67,33,10.45,UA,scattered clouds,2022-10-04 22:55:20
277,Rawson,-43.3002,-65.1023,65.39,33,53,4.99,AR,broken clouds,2022-10-04 22:55:21
278,Nioro,13.35,-15.75,78.84,88,52,8.16,GM,broken clouds,2022-10-04 22:55:21
279,Sosnovo-Ozerskoye,52.5249,111.5418,17.2,93,19,5.57,RU,few clouds,2022-10-04 22:55:21
280,Salalah,17.0151,54.0924,77.72,84,65,5.3,OM,broken clouds,2022-10-04 22:55:22
281,Haines Junction,60.7522,-137.5108,48.15,57,100,1.14,CA,overcast clouds,2022-10-04 22:55:22
282,Lagos,6.5833,3.75,75.61,92,45,2.95,NG,scattered clouds,2022-10-04 22:55:23
283,Pokosnoye,55.5258,101.0536,24.01,94,66,2.42,RU,broken clouds,2022-10-04 22:55:23
284,San Cristobal,7.7669,-72.225,77.18,78,41,2.62,VE,scattered clouds,2022-10-04 22:55:23
285,Ugoofaaru,5.6667,73.0,81.77,77,100,17.05,MV,overcast clouds,2022-10-04 22:55:24
286,Diamantino,-14.4086,-56.4461,81.81,57,83,4.34,BR,broken clouds,2022-10-04 22:55:24
287,Hambantota,6.1241,81.1185,79.05,79,100,16.22,LK,overcast clouds,2022-10-04 22:55:25
288,Ahipara,-35.1667,173.1667,59.63,63,82,13.89,NZ,broken clouds,2022-10-04 22:55:25
289,Nikolskoye,59.7035,30.7861,44.8,96,71,1.86,RU,broken clouds,2022-10-04 22:55:25
290,Mayumba,-3.432,10.6554,75.74,84,59,4.94,GA,broken clouds,2022-10-04 22:55:26
291,Filadelfia,39.9523,-75.1638,52.95,94,100,5.01,US,overcast clouds,2022-10-04 22:55:27
292,Fairbanks,64.8378,-147.7164,53.31,55,0,6.91,US,clear sky,2022-10-04 22:53:40
293,Chepareria,1.3077,35.2039,60.57,81,54,3.31,KE,broken clouds,2022-10-04 22:55:28
294,Ridgecrest,35.6225,-117.6709,96.66,9,0,4.0,US,clear sky,2022-10-04 22:55:28
295,Marana,32.4367,-111.2254,82.51,32,0,20.71,US,clear sky,2022-10-04 22:55:29
296,Makhachkala,42.9764,47.5024,60.78,77,7,7.4,RU,clear sky,2022-10-04 22:55:29
297,Lebyazhye,55.2689,66.4947,43.07,48,19,8.79,RU,few clouds,2022-10-04 22:55:29
298,Korla,41.7597,86.1469,52.5,26,40,7.05,CN,scattered clouds,2022-10-04 22:55:30
299,Saint-Joseph,-21.3667,55.6167,64.78,79,23,9.66,RE,few clouds,2022-10-04 22:55:31
300,Garowe,8.4054,48.4845,74.68,73,92,11.7,SO,overcast clouds,2022-10-04 22:55:31
301,Shkotovo,43.3319,132.3625,33.08,69,0,4.47,RU,clear sky,2022-10-04 22:55:32
302,Soeng Sang,14.4264,102.4606,71.26,97,33,2.1,TH,scattered clouds,2022-10-04 22:55:33
303,Fallon,39.4735,-118.7774,80.47,12,0,5.75,US,clear sky,2022-10-04 22:55:33
304,Nome,64.5011,-165.4064,48.27,76,75,11.5,US,broken clouds,2022-10-04 22:55:33
305,Can Tho,10.0333,105.7833,76.98,100,20,3.44,VN,few clouds,2022-10-04 22:55:34
306,Chicama,-7.8447,-79.1469,59.54,75,30,8.41,PE,scattered clouds,2022-10-04 22:55:34
307,Kaitangata,-46.2817,169.8464,37.72,91,78,15.68,NZ,broken clouds,2022-10-04 22:55:35
308,Nanortalik,60.1432,-45.2371,37.15,98,100,10.74,GL,moderate rain,2022-10-04 22:55:35
309,Vostok,46.4856,135.8833,28.67,59,11,6.6,RU,few clouds,2022-10-04 22:55:35
310,Tobermory,45.2501,-81.6665,57.87,70,15,7.56,CA,few clouds,2022-10-04 22:55:36
311,Grand Gaube,-20.0064,57.6608,70.38,73,46,5.01,MU,scattered clouds,2022-10-04 22:55:36
312,Jumla,29.2747,82.1838,53.47,90,9,3.53,NP,clear sky,2022-10-04 22:55:36
313,Vao,-22.6667,167.4833,68.49,60,5,9.37,NC,clear sky,2022-10-04 22:55:37
314,Ambovombe,-25.1667,46.0833,67.03,85,0,5.08,MG,clear sky,2022-10-04 22:55:37
315,Mahebourg,-20.4081,57.7,70.25,83,40,6.91,MU,scattered clouds,2022-10-04 22:55:37
316,San Patricio,28.017,-97.5169,84.92,41,92,11.68,US,overcast clouds,2022-10-04 22:55:38
317,Port Lincoln,-34.7333,135.8667,60.26,85,39,9.37,AU,scattered clouds,2022-10-04 22:55:38
318,Mehamn,71.0357,27.8492,42.75,81,100,4.61,NO,overcast clouds,2022-10-04 22:55:38
319,Borba,-4.3878,-59.5939,80.44,65,85,2.46,BR,overcast clouds,2022-10-04 22:55:39
320,La Crosse,43.8014,-91.2396,72.16,57,100,3.0,US,overcast clouds,2022-10-04 22:54:15
321,Leh,34.1667,77.5833,44.24,49,1,4.07,IN,clear sky,2022-10-04 22:55:39
322,Laguna,38.421,-121.4238,90.34,36,0,1.99,US,clear sky,2022-10-04 22:55:40
323,Nuuk,64.1835,-51.7216,32.88,52,100,15.01,GL,overcast clouds,2022-10-04 22:55:40
324,Vigia,-0.8583,-48.1417,77.18,87,70,11.14,BR,broken clouds,2022-10-04 22:55:40
325,Puerto Madero,14.7208,-92.4215,82.67,76,41,6.06,MX,scattered clouds,2022-10-04 22:55:41
326,Geraldton,-28.7667,114.6,59.41,94,75,3.44,AU,light rain,2022-10-04 22:55:41
327,Dharchula,29.85,80.5333,63.54,75,5,4.97,IN,clear sky,2022-10-04 22:55:41
328,Yerbogachen,61.2767,108.0108,27.77,71,86,9.15,RU,overcast clouds,2022-10-04 22:55:42
329,Boyolangu,-8.1181,111.8935,75.85,88,93,4.83,ID,overcast clouds,2022-10-04 22:55:42
330,Asau,46.4333,26.4,47.32,90,83,4.83,RO,broken clouds,2022-10-04 22:55:43
331,Muli,2.9167,73.5667,81.73,77,100,18.84,MV,overcast clouds,2022-10-04 22:55:44
332,Randfontein,-26.1844,27.702,71.11,47,57,12.37,ZA,broken clouds,2022-10-04 22:55:45
333,Henderson,36.0397,-114.9819,92.82,25,0,6.91,US,clear sky,2022-10-04 22:55:45
334,Lincoln,40.8,-96.667,77.0,43,100,10.36,US,overcast clouds,2022-10-04 22:51:44
335,Nouadhibou,20.931,-17.0347,76.98,65,53,12.66,MR,broken clouds,2022-10-04 22:55:45
336,Gizo,-8.103,156.8419,84.6,66,55,10.58,SB,broken clouds,2022-10-04 22:55:46
337,Broome,42.2506,-75.833,53.2,78,100,1.99,US,light rain,2022-10-04 22:55:46
338,La Estancia,20.4167,-100.0667,66.61,64,89,7.7,MX,overcast clouds,2022-10-04 22:55:47
339,Naurskaya,43.6519,45.3133,67.14,66,70,9.31,RU,broken clouds,2022-10-04 22:55:47
340,Mathathane,-22.2687,28.7495,73.13,69,0,24.54,BW,clear sky,2022-10-04 22:55:47
341,Pevek,69.7008,170.3133,26.82,81,75,7.14,RU,broken clouds,2022-10-04 22:55:48
342,Severo-Yeniseyskiy,60.3725,93.0408,31.1,73,100,10.67,RU,overcast clouds,2022-10-04 22:55:48
343,Bengkulu,-3.8004,102.2655,75.16,90,100,4.76,ID,overcast clouds,2022-10-04 22:55:48
344,Weston,26.1004,-80.3998,83.01,59,40,10.36,US,scattered clouds,2022-10-04 22:52:20
345,That Phanom,16.9364,104.7104,72.03,91,70,3.96,TH,broken clouds,2022-10-04 22:55:49
346,Srednekolymsk,67.45,153.6833,21.6,74,9,11.21,RU,clear sky,2022-10-04 22:55:49
347,Katobu,-4.9408,122.5276,78.08,86,100,2.95,ID,overcast clouds,2022-10-04 22:55:49
348,Shahr-E Babak,30.1165,55.1186,67.23,19,1,10.49,IR,clear sky,2022-10-04 22:55:50
349,Ayagoz,47.9714,80.4392,30.74,57,0,11.81,KZ,clear sky,2022-10-04 22:55:50
350,Bako,5.7833,36.5667,65.71,74,95,3.11,ET,light rain,2022-10-04 22:55:50
351,Morehead,37.2711,-87.1764,71.35,43,0,0.0,US,clear sky,2022-10-04 22:55:51
352,Manitouwadge,49.1215,-85.8403,55.42,93,100,4.63,CA,overcast clouds,2022-10-04 22:55:52
353,Sribne,50.6638,32.9187,46.49,91,100,12.86,UA,overcast clouds,2022-10-04 22:55:53
354,Kissidougou,9.1848,-10.0999,70.86,94,60,1.83,GN,light rain,2022-10-04 22:55:54
355,Jiuquan,39.7432,98.5174,44.04,38,100,0.85,CN,overcast clouds,2022-10-04 22:55:55
356,Harper,4.375,-7.7169,76.24,92,80,6.93,LR,broken clouds,2022-10-04 22:55:57
357,Tarbes,43.25,0.1667,58.5,82,0,5.75,FR,clear sky,2022-10-04 22:55:57
358,Longview,32.5007,-94.7405,86.25,32,2,3.0,US,clear sky,2022-10-04 22:55:58
359,Mathbaria,22.2876,89.9593,77.95,92,100,4.72,BD,overcast clouds,2022-10-04 22:55:59
360,Kulhudhuffushi,6.6221,73.07,81.54,77,100,17.63,MV,overcast clouds,2022-10-04 22:56:01
361,Panjab,34.388,67.0233,40.32,30,0,4.68,AF,clear sky,2022-10-04 22:56:03
362,Lumphat,13.4878,106.9816,72.23,90,93,3.0,KH,overcast clouds,2022-10-04 22:56:04
363,Playas,-2.6333,-80.3833,70.38,80,99,14.36,EC,overcast clouds,2022-10-04 22:56:04
364,Souillac,-20.5167,57.5167,70.18,83,40,6.91,MU,scattered clouds,2022-10-04 22:56:05
365,Brentwood,40.7812,-73.2462,57.88,93,100,20.71,US,light intensity drizzle,2022-10-04 22:54:10
366,Kalabo,-14.97,22.6814,71.49,20,0,4.92,ZM,clear sky,2022-10-04 22:56:06
367,Miloslavskoye,53.5815,39.4399,47.53,83,100,11.68,RU,overcast clouds,2022-10-04 22:56:07
368,Arona,28.0996,-16.681,76.91,69,40,20.71,ES,scattered clouds,2022-10-04 22:52:01
369,Ojinaga,29.5667,-104.4167,89.56,28,0,0.0,MX,clear sky,2022-10-04 22:55:56
370,Gunnedah,-30.9833,150.25,64.31,63,100,8.93,AU,moderate rain,2022-10-04 22:56:08
371,Malente,54.1712,10.5552,55.76,91,100,11.65,DE,overcast clouds,2022-10-04 22:56:08
372,Saint Anthony,45.0205,-93.218,74.8,46,100,1.99,US,overcast clouds,2022-10-04 22:56:09
373,Aklavik,68.2191,-135.0107,32.4,92,8,11.56,CA,clear sky,2022-10-04 22:56:09
374,Sfantu Gheorghe,45.8667,25.7833,44.92,93,85,2.08,RO,overcast clouds,2022-10-04 22:56:10
375,Homer,59.6425,-151.5483,48.04,86,100,12.44,US,overcast clouds,2022-10-04 22:56:10
376,Tingo Maria,-9.2895,-76.0088,75.54,81,82,2.44,PE,broken clouds,2022-10-04 22:56:10
377,Balaipungut,1.05,101.2833,72.57,99,100,2.84,ID,moderate rain,2022-10-04 22:56:11
378,Belaya Gora,68.5333,146.4167,19.89,89,58,2.8,RU,broken clouds,2022-10-04 22:56:11
379,Kyabram,-36.3167,145.05,53.87,95,100,18.54,AU,light rain,2022-10-04 22:56:12
380,Merauke,-8.4667,140.3333,80.58,84,98,12.53,ID,heavy intensity rain,2022-10-04 22:56:12
381,Canto Do Buriti,-8.11,-42.9444,82.44,22,22,2.06,BR,few clouds,2022-10-04 22:52:11
382,La Ronge,55.1001,-105.2842,66.45,34,40,6.91,CA,smoke,2022-10-04 22:56:13
383,Los Llanos De Aridane,28.6585,-17.9182,73.15,47,75,5.75,ES,broken clouds,2022-10-04 22:56:13
384,Antofagasta,-23.65,-70.4,60.08,83,16,6.76,CL,few clouds,2022-10-04 22:56:13
385,Sembe,1.6481,14.5806,69.91,99,100,1.48,CG,overcast clouds,2022-10-04 22:56:14
386,Netishyn,50.34,26.6417,48.6,85,55,13.24,UA,broken clouds,2022-10-04 22:56:14
387,Onoda,34.0014,131.1836,70.29,78,75,9.22,JP,broken clouds,2022-10-04 22:56:15
388,Half Moon Bay,37.4636,-122.4286,81.59,71,100,12.66,US,mist,2022-10-04 22:56:15
389,Avrille,47.5,-0.5833,54.72,96,92,5.44,FR,overcast clouds,2022-10-04 22:56:15
390,Ostrovnoy,68.0531,39.5131,45.97,92,84,13.15,RU,broken clouds,2022-10-04 22:56:16
391,Am Timan,11.0297,20.2827,72.55,87,68,8.16,TD,broken clouds,2022-10-04 22:56:16
392,Karwar,14.8,74.1333,77.09,91,79,10.8,IN,broken clouds,2022-10-04 22:56:17
393,Badiraguato,25.3667,-107.5167,77.94,81,44,4.23,MX,scattered clouds,2022-10-04 22:56:17
394,Maraa,-1.8333,-65.3667,81.55,67,78,2.3,BR,broken clouds,2022-10-04 22:56:17
395,Herat,34.5,62.0,61.48,23,0,9.1,AF,clear sky,2022-10-04 22:56:18
396,Ironton,38.5368,-82.6829,66.6,39,0,3.44,US,clear sky,2022-10-04 22:52:29
397,Airai,-8.9266,125.4092,64.72,83,95,2.26,TL,overcast clouds,2022-10-04 22:56:18
398,Lesosibirsk,58.2358,92.4828,31.23,81,99,4.54,RU,overcast clouds,2022-10-04 22:56:19
399,Khani,41.9563,42.9566,54.97,90,100,1.3,GE,overcast clouds,2022-10-04 22:56:19
400,Saraj,42.0,21.3278,42.35,69,25,3.91,MK,scattered clouds,2022-10-04 22:56:20
401,Sarmizegetusa,45.5167,22.7833,43.16,89,53,2.98,RO,light rain,2022-10-04 22:56:20
402,Sur,22.5667,59.5289,78.67,70,21,7.09,OM,few clouds,2022-10-04 22:56:20
403,Buta,2.7858,24.73,69.57,99,100,0.38,CD,overcast clouds,2022-10-04 22:55:11
404,Hokitika,-42.7167,170.9667,48.49,57,94,28.36,NZ,overcast clouds,2022-10-04 22:56:21
405,Labuhan,-6.8844,112.2051,77.29,82,94,6.93,ID,overcast clouds,2022-10-04 22:56:21
406,Summerside,46.3959,-63.7876,53.94,70,77,10.85,CA,broken clouds,2022-10-04 22:56:22
407,Gainesville,29.6516,-82.3248,72.09,54,0,6.91,US,clear sky,2022-10-04 22:51:42
408,Daska,32.3243,74.3497,75.18,61,0,4.16,PK,clear sky,2022-10-04 22:56:23
409,Namibe,-15.1961,12.1522,64.76,89,67,2.93,AO,broken clouds,2022-10-04 22:56:23
410,Horta,38.5333,-28.6333,70.83,81,76,7.4,PT,broken clouds,2022-10-04 22:55:04
411,Dossor,47.5272,52.9811,54.5,31,86,16.46,KZ,overcast clouds,2022-10-04 22:56:24
412,Balkanabat,39.5108,54.3671,71.17,16,0,12.35,TM,clear sky,2022-10-04 22:56:25
413,Portland,45.5234,-122.6762,64.38,72,75,3.44,US,broken clouds,2022-10-04 22:55:18
414,Mogadishu,2.0371,45.3438,76.87,88,53,11.9,SO,broken clouds,2022-10-04 22:56:26
415,Moose Factory,51.2585,-80.6094,46.4,93,100,4.61,CA,overcast clouds,2022-10-04 22:56:26
416,Lima,-12.0432,-77.0282,63.9,76,100,14.97,PE,overcast clouds,2022-10-04 22:56:27
417,Biak,-0.9131,122.8766,78.17,78,88,1.07,ID,overcast clouds,2022-10-04 22:56:27
418,Niksic,42.7731,18.9445,57.06,74,2,6.22,ME,clear sky,2022-10-04 22:56:27
419,Havelock,34.8791,-76.9013,62.55,74,39,4.85,US,scattered clouds,2022-10-04 22:56:28
420,Svetlogorsk,52.6333,29.7333,45.39,86,100,13.91,BY,overcast clouds,2022-10-04 22:56:28
421,Mariinskiy Posad,56.115,47.718,45.54,91,100,13.91,RU,light rain,2022-10-04 22:56:29
422,Jurm,36.8648,70.8342,50.9,47,0,0.13,AF,clear sky,2022-10-04 22:56:29
423,Redcliffe,-27.2307,153.0973,73.15,65,75,4.61,AU,broken clouds,2022-10-04 22:56:30
424,Acarau,-2.8856,-40.12,78.21,79,75,17.16,BR,broken clouds,2022-10-04 22:56:30
425,Waingapu,-9.6567,120.2641,80.19,77,57,4.16,ID,broken clouds,2022-10-04 22:56:31
426,Sao Joao Da Barra,-21.6403,-41.0511,73.49,95,92,9.62,BR,overcast clouds,2022-10-04 22:56:31
427,Port Macquarie,-31.4333,152.9167,64.71,66,99,6.93,AU,overcast clouds,2022-10-04 22:56:31
428,Hays,30.0502,-98.0336,88.3,24,6,5.01,US,clear sky,2022-10-04 22:54:09
429,Pangnirtung,66.1451,-65.7125,39.2,48,75,12.66,CA,broken clouds,2022-10-04 22:56:33
430,Vicuna,-30.0319,-70.7081,62.76,57,71,6.08,CL,broken clouds,2022-10-04 22:56:34
431,Ust-Nera,64.5667,143.2,13.53,92,100,6.62,RU,overcast clouds,2022-10-04 22:56:34
432,Leua,48.2156,18.6071,50.5,77,16,2.71,SK,few clouds,2022-10-04 22:56:35
433,Palomares,17.15,-95.0667,78.85,82,21,6.98,MX,few clouds,2022-10-04 22:56:35
434,Narsaq,60.9167,-46.05,35.94,73,100,7.56,GL,light rain,2022-10-04 22:56:35
435,Kuytun,54.3419,101.5036,24.78,93,75,2.73,RU,broken clouds,2022-10-04 22:56:36
436,Valparaiso,-33.0393,-71.6273,57.43,82,0,4.61,CL,clear sky,2022-10-04 22:56:36
437,Ha Tinh,18.3333,105.9,74.79,94,95,4.63,VN,overcast clouds,2022-10-04 22:56:36
438,Verkhoyansk,67.5447,133.385,11.55,98,87,2.39,RU,overcast clouds,2022-10-04 22:56:37
439,Hit,33.6416,42.8251,81.48,20,0,7.76,IQ,clear sky,2022-10-04 22:56:37
440,Pyapon,16.2833,95.6833,75.34,92,100,4.36,MM,overcast clouds,2022-10-04 22:56:37
441,Yurgamysh,55.3714,64.4656,43.5,43,54,7.45,RU,broken clouds,2022-10-04 22:56:38
442,Faya,18.3851,42.4509,64.92,27,12,7.67,SA,few clouds,2022-10-04 22:56:38
443,Farkhor,37.4922,69.4036,61.29,29,0,2.24,TJ,clear sky,2022-10-04 22:56:39
444,Tupelo,34.2576,-88.7034,80.89,30,0,10.36,US,clear sky,2022-10-04 22:51:57
445,Kysyl-Syr,63.8986,122.7617,23.77,83,98,5.64,RU,overcast clouds,2022-10-04 22:56:39
446,Sechura,-5.5569,-80.8222,67.35,69,91,19.04,PE,overcast clouds,2022-10-04 22:56:40
447,Lucapa,-8.4192,20.7447,68.4,72,23,3.69,AO,few clouds,2022-10-04 22:56:40
448,Bay City,43.5945,-83.8889,69.91,42,0,0.0,US,clear sky,2022-10-04 22:54:03
449,Antigonish,45.6169,-61.9986,54.82,72,9,8.1,CA,clear sky,2022-10-04 22:56:41
450,Bonthe,7.5264,-12.505,75.81,92,63,2.68,SL,moderate rain,2022-10-04 22:56:41
451,Ciudad Bolivar,8.1222,-63.5497,84.04,65,80,0.89,VE,broken clouds,2022-10-04 22:56:41
452,Port Hawkesbury,45.6169,-61.3485,52.97,83,0,6.91,CA,clear sky,2022-10-04 22:56:30
453,Plouzane,48.3833,-4.6167,61.12,88,100,16.11,FR,overcast clouds,2022-10-04 22:56:42
454,Ourossogui,15.6064,-13.3211,93.81,39,94,8.75,SN,overcast clouds,2022-10-04 22:56:42
455,Jamame,0.0722,42.7506,74.82,90,18,8.41,SO,few clouds,2022-10-04 22:56:43
456,Nytva,57.9404,55.334,39.09,58,69,4.9,RU,broken clouds,2022-10-04 22:56:43
457,Salta,-24.7859,-65.4117,79.39,31,20,13.8,AR,few clouds,2022-10-04 22:56:43
458,Aksu,41.1231,80.2644,53.55,26,6,3.42,CN,clear sky,2022-10-04 22:56:44
459,Touros,-5.1989,-35.4608,77.0,76,80,14.7,BR,broken clouds,2022-10-04 22:56:44
460,Yuzhno-Kurilsk,44.0306,145.8556,54.66,62,68,21.36,RU,broken clouds,2022-10-04 22:56:44
461,Okha,53.5739,142.9478,35.73,78,99,16.53,RU,light rain,2022-10-04 22:56:45
462,Nalut,30.3333,10.85,72.82,44,0,12.41,LY,clear sky,2022-10-04 22:56:46
463,Avezzano,42.0402,13.4388,56.73,76,91,1.01,IT,overcast clouds,2022-10-04 22:56:46
464,Sompeta,18.9333,84.6,79.14,88,100,0.67,IN,overcast clouds,2022-10-04 22:56:47
465,Zigong,29.3416,104.7769,63.61,89,100,2.1,CN,overcast clouds,2022-10-04 22:53:31
466,Itarema,-2.9248,-39.9167,78.08,79,90,16.51,BR,overcast clouds,2022-10-04 22:56:47
467,Hualmay,-11.0964,-77.6139,62.4,76,23,11.97,PE,few clouds,2022-10-04 22:56:48
468,Grindavik,63.8424,-22.4338,43.27,75,75,29.93,IS,broken clouds,2022-10-04 22:56:49
469,Manokwari,-0.8667,134.0833,81.61,70,100,3.53,ID,overcast clouds,2022-10-04 22:56:49
470,Ixtapa,20.7,-105.2,85.23,75,44,4.0,MX,scattered clouds,2022-10-04 22:56:49
471,Sarai Naurang,32.8259,70.7814,82.11,29,0,0.47,PK,clear sky,2022-10-04 22:56:50
472,Male,4.1748,73.5089,82.35,78,75,18.41,MV,broken clouds,2022-10-04 22:56:50
473,Meridian,43.6121,-116.3915,81.52,30,0,4.61,US,clear sky,2022-10-04 22:56:50
474,Kampene,-3.6,26.6667,68.54,95,99,1.95,CD,overcast clouds,2022-10-04 22:56:51
475,Shache,38.4167,77.2406,51.71,29,28,4.5,CN,scattered clouds,2022-10-04 22:56:51
476,Xingcheng,40.6167,120.7167,42.42,38,0,5.99,CN,clear sky,2022-10-04 22:56:52
477,Nawabshah,26.2483,68.4096,81.59,53,78,6.31,PK,broken clouds,2022-10-04 22:56:52
478,Port Keats,-14.25,129.55,84.52,67,3,2.42,AU,clear sky,2022-10-04 22:56:52
479,Pasinler,39.9803,41.6764,58.19,39,23,2.3,TR,few clouds,2022-10-04 22:56:53
480,Mandal,25.45,74.5667,78.1,46,49,6.98,IN,scattered clouds,2022-10-04 22:56:53
481,Coos Bay,43.3665,-124.2179,61.14,100,92,4.21,US,overcast clouds,2022-10-04 22:56:54
482,Abancay,-13.6339,-72.8814,65.97,59,63,5.53,PE,broken clouds,2022-10-04 22:56:54
483,Tall Kayf,37.0833,41.0667,78.08,20,55,11.54,TR,broken clouds,2022-10-04 22:56:54
484,Iracoubo,5.4802,-53.2011,79.88,80,83,11.52,GF,broken clouds,2022-10-04 22:56:55
485,Omboue,-1.5746,9.2618,75.49,83,52,4.97,GA,broken clouds,2022-10-04 22:56:55
486,Sorgun,39.8101,35.186,55.42,86,100,6.98,TR,overcast clouds,2022-10-04 22:55:18
487,Maniitsoq,65.4167,-52.9,35.76,57,100,6.8,GL,overcast clouds,2022-10-04 22:56:56
488,Yar-Sale,66.8333,70.8333,38.14,74,90,15.46,RU,overcast clouds,2022-10-04 22:56:56
489,Trelew,-43.249,-65.3051,68.2,25,84,7.61,AR,broken clouds,2022-10-04 22:56:56
490,Cotonou,6.3654,2.4183,77.63,88,82,8.01,BJ,broken clouds,2022-10-04 22:56:57
491,Porto Novo,6.4965,2.6036,76.41,90,82,4.74,BJ,broken clouds,2022-10-04 22:56:57
492,Una,20.8167,71.0333,76.41,84,48,9.84,IN,scattered clouds,2022-10-04 22:56:58
493,Leshukonskoye,64.8989,45.7622,43.14,97,100,4.83,RU,overcast clouds,2022-10-04 22:56:58
494,Presidencia Roque Saenz Pena,-26.7852,-60.4388,77.16,23,0,9.17,AR,clear sky,2022-10-04 22:56:58
495,Yulara,-25.2406,130.9889,66.02,43,0,6.15,AU,clear sky,2022-10-04 22:56:59
496,Kloulklubed,7.0419,134.2556,81.1,75,100,7.07,PW,overcast clouds,2022-10-04 22:56:59
497,Dunedin,-45.8742,170.5036,41.2,78,65,20.4,NZ,broken clouds,2022-10-04 22:56:01
498,Gravdal,68.1214,13.5031,50.14,77,100,17.81,NO,light rain,2022-10-04 22:57:00
499,Ahuimanu,21.4447,-157.8378,85.75,73,75,11.5,US,moderate rain,2022-10-04 22:57:00
500,Tarakan,3.3,117.6333,78.3,94,75,3.44,ID,broken clouds,2022-10-04 22:55:05
501,Tucupita,9.0622,-62.051,76.59,91,77,3.04,VE,broken clouds,2022-10-04 22:57:00
502,Kuching,1.55,110.3333,75.42,100,40,0.0,MY,scattered clouds,2022-10-04 22:57:01
503,Bull Savanna,17.8868,-77.5902,78.71,83,100,3.51,JM,overcast clouds,2022-10-04 22:57:01
504,Rosario,-32.9468,-60.6393,69.71,35,0,14.97,AR,clear sky,2022-10-04 22:53:23
505,Vardo,70.3705,31.1107,44.58,93,100,12.66,NO,overcast clouds,2022-10-04 22:57:02
506,Moree,-29.4667,149.85,66.33,56,100,19.17,AU,heavy intensity rain,2022-10-04 22:57:02
507,Alcantara,-2.4089,-44.4147,82.6,79,24,9.84,BR,few clouds,2022-10-04 22:57:03
508,Champerico,14.3,-91.9167,88.34,76,95,7.67,GT,overcast clouds,2022-10-04 22:57:03
509,Along,28.1667,94.7667,71.96,98,100,1.01,IN,overcast clouds,2022-10-04 22:57:04
510,Gallup,35.5281,-108.7426,63.36,66,40,9.22,US,scattered clouds,2022-10-04 22:57:04
511,Padang,-0.9492,100.3543,75.02,89,100,4.47,ID,moderate rain,2022-10-04 22:57:05
512,Morondava,-20.2833,44.2833,74.12,78,0,4.47,MG,clear sky,2022-10-04 22:57:05
513,Oirschot,51.505,5.3139,59.11,79,100,5.75,NL,overcast clouds,2022-10-04 22:57:06
514,Aleysk,52.4926,82.7822,34.5,65,54,4.65,RU,broken clouds,2022-10-04 22:57:06
515,Hami,42.8,93.45,53.76,58,100,7.0,CN,overcast clouds,2022-10-04 22:57:06
516,Zwettl,48.6,15.1667,51.37,88,30,4.27,AT,scattered clouds,2022-10-04 22:57:07
517,Reconquista,-29.15,-59.65,67.5,40,0,11.12,AR,clear sky,2022-10-04 22:57:07
518,Kodinsk,58.6881,99.1844,23.13,97,28,4.12,RU,scattered clouds,2022-10-04 22:57:08
519,Lumsden,50.6501,-104.8678,74.35,35,36,7.16,CA,scattered clouds,2022-10-04 22:57:08
520,Zlobin,45.2924,14.6541,51.58,87,0,0.0,HR,clear sky,2022-10-04 22:57:09
521,Kisangani,0.5167,25.2,70.29,99,100,3.24,CD,moderate rain,2022-10-04 22:57:10
522,Ketchikan,55.3422,-131.6461,57.96,86,100,5.53,US,overcast clouds,2022-10-04 22:57:11
523,Kavaratti,10.5669,72.642,81.07,77,99,16.46,IN,overcast clouds,2022-10-04 22:53:29
524,Koslan,63.4564,48.8989,46.38,99,100,5.39,RU,overcast clouds,2022-10-04 22:57:11
525,Omsukchan,62.5333,155.8,15.1,95,100,13.51,RU,snow,2022-10-04 22:57:12
526,Kokuy,52.2037,117.5529,24.6,52,18,2.8,RU,few clouds,2022-10-04 22:57:12
527,Biskamzha,53.4497,89.5272,27.37,85,54,2.3,RU,broken clouds,2022-10-04 22:57:12
528,San Rafael,-34.6177,-68.3301,66.2,32,92,22.1,AR,light rain,2022-10-04 22:54:57
529,Port Moresby,-9.4431,147.1797,81.82,74,20,5.75,PG,haze,2022-10-04 22:57:13
530,Divo,5.8397,-5.36,71.13,100,69,2.35,CI,broken clouds,2022-10-04 22:57:13
531,Carutapera,-1.195,-46.02,78.87,74,50,8.14,BR,scattered clouds,2022-10-04 22:57:14
532,Bobo Dioulasso,11.1771,-4.2979,72.81,84,93,3.51,BF,light rain,2022-10-04 22:57:14
533,Mudhol,16.35,75.2833,73.02,79,100,7.72,IN,overcast clouds,2022-10-04 22:57:14
534,Pochutla,15.7432,-96.4661,85.82,76,54,4.14,MX,broken clouds,2022-10-04 22:57:15
535,Klamath Falls,42.2249,-121.7817,83.48,25,68,1.99,US,broken clouds,2022-10-04 22:56:25
536,Stromness,58.965,-3.296,49.96,81,70,10.0,GB,broken clouds,2022-10-04 22:57:15
537,Passau,48.5712,13.449,47.62,96,7,2.84,DE,clear sky,2022-10-04 22:57:17
538,Shitanjing,39.2342,106.3439,44.56,43,99,4.79,CN,overcast clouds,2022-10-04 22:57:17
539,Korsakov,46.6328,142.7813,42.64,78,86,17.56,RU,overcast clouds,2022-10-04 22:57:18
540,Prince Rupert,54.3161,-130.3201,60.89,78,0,6.91,CA,clear sky,2022-10-04 22:54:28
541,Nhulunbuy,-12.2333,136.7667,83.01,74,40,11.5,AU,scattered clouds,2022-10-04 22:57:18
542,Manono,-7.3,27.4167,74.16,69,72,3.02,CD,broken clouds,2022-10-04 22:57:19
543,Olavarria,-36.8927,-60.3225,58.21,32,27,8.81,AR,scattered clouds,2022-10-04 22:57:19
544,Cedar City,37.6775,-113.0619,71.4,30,1,9.89,US,clear sky,2022-10-04 22:53:52
545,Kenai,60.5544,-151.2583,48.02,90,100,14.47,US,light rain,2022-10-04 22:57:20
546,Beringovskiy,63.05,179.3167,41.49,82,95,9.71,RU,overcast clouds,2022-10-04 22:57:20
547,Moses Lake,47.1301,-119.2781,87.89,20,22,4.54,US,few clouds,2022-10-04 22:56:55
548,Trat,12.5,102.5,80.82,93,100,3.74,TH,overcast clouds,2022-10-04 22:57:20
549,Wau,7.7029,27.9953,69.69,88,82,2.53,SS,broken clouds,2022-10-04 22:57:21
550,Zaraza,9.3503,-65.3245,76.05,94,95,4.5,VE,overcast clouds,2022-10-04 22:57:21
551,Nizwa,22.9333,57.5333,74.93,60,0,0.63,OM,clear sky,2022-10-04 22:57:22
552,Kastamonu,41.5,33.6667,50.81,85,100,1.79,TR,overcast clouds,2022-10-04 22:57:22
553,Aasiaat,68.7098,-52.8699,21.61,80,25,5.14,GL,scattered clouds,2022-10-04 22:57:22
554,Tyukhtet,56.5389,89.3011,33.1,76,100,7.16,RU,overcast clouds,2022-10-04 22:57:23
555,Tame,6.461,-71.73,77.77,80,72,1.86,CO,broken clouds,2022-10-04 22:57:23
556,Svetlopolyansk,59.4184,52.3605,43.83,66,97,5.77,RU,overcast clouds,2022-10-04 22:57:24
557,Grand-Lahou,5.1367,-5.0242,75.02,95,79,6.98,CI,broken clouds,2022-10-04 22:57:24
558,Mount Isa,-20.7333,139.5,69.57,100,100,10.36,AU,overcast clouds,2022-10-04 22:57:25
559,Bosaso,11.2842,49.1816,86.18,56,90,3.49,SO,overcast clouds,2022-10-04 22:57:25
560,Mananjary,-21.2167,48.3333,67.62,87,2,8.88,MG,clear sky,2022-10-04 22:57:25
561,Mildura,-34.2,142.15,60.76,100,100,11.5,AU,light intensity shower rain,2022-10-04 22:57:26
562,Ushtobe,45.2514,77.9838,43.92,30,24,10.04,KZ,few clouds,2022-10-04 22:57:27
563,Sola,-13.8833,167.55,80.44,77,31,15.1,VU,scattered clouds,2022-10-04 22:57:27
564,Novobelokatay,55.7062,58.9549,44.19,66,97,2.91,RU,overcast clouds,2022-10-04 22:57:28
565,Lichinga,-13.3128,35.2406,63.18,34,8,6.42,MZ,clear sky,2022-10-04 22:57:28
566,Asfi,32.2994,-9.2372,69.75,77,5,10.89,MA,clear sky,2022-10-04 22:55:11
567,Gatesville,31.4352,-97.7439,88.36,24,0,7.92,US,clear sky,2022-10-04 22:57:29
568,Taitung,22.7583,121.1444,75.47,78,75,5.75,TW,broken clouds,2022-10-04 22:57:29
569,Dembi Dolo,8.5333,34.8,55.29,93,76,3.15,ET,broken clouds,2022-10-04 22:57:29
570,Alofi,-19.0595,-169.9187,82.29,69,13,10.36,NU,few clouds,2022-10-04 22:57:30
571,Banjar,-8.19,114.9675,77.81,88,66,5.82,ID,broken clouds,2022-10-04 22:57:30
572,Knysna,-34.0363,23.0471,53.82,79,40,3.91,ZA,scattered clouds,2022-10-04 22:57:30
573,Simao,22.7886,100.9748,65.07,81,87,2.13,CN,overcast clouds,2022-10-04 22:57:31
574,Oranjestad,12.524,-70.027,84.15,82,20,13.8,AW,few clouds,2022-10-04 22:57:31
575,Iqaluit,63.7506,-68.5145,35.33,93,100,0.0,CA,light rain,2022-10-04 22:57:31
576,Redwater,33.3582,-94.2544,82.33,37,1,4.38,US,clear sky,2022-10-04 22:57:32
577,Union,40.6334,-74.2663,56.26,96,100,17.27,US,overcast clouds,2022-10-04 22:57:32
578,Imbituba,-28.24,-48.6703,60.17,75,82,4.5,BR,broken clouds,2022-10-04 22:57:32
579,The Valley,18.217,-63.0578,84.06,83,20,13.8,AI,few clouds,2022-10-04 22:57:33
580,Ambon,-3.6954,128.1814,78.94,89,20,4.61,ID,few clouds,2022-10-04 22:57:33
581,Kuningan,-6.9758,108.4831,69.03,92,86,5.53,ID,overcast clouds,2022-10-04 22:57:33
582,Krasnogorskoye,52.2953,86.1979,30.27,89,85,3.38,RU,overcast clouds,2022-10-04 22:57:34
583,Huanren,41.2647,125.3667,35.6,54,0,3.6,CN,clear sky,2022-10-04 22:57:34
584,Shemysheyka,52.892,45.3928,48.67,85,100,12.86,RU,overcast clouds,2022-10-04 22:57:34
585,Praia Da Vitoria,38.7333,-27.0667,69.76,88,0,6.06,PT,clear sky,2022-10-04 22:57:35
586,San Quintin,30.4833,-115.95,71.92,76,25,11.97,MX,scattered clouds,2022-10-04 22:57:35
587,Aswan,24.0934,32.907,87.1,28,0,11.5,EG,clear sky,2022-10-04 22:54:15
588,Malinyi,-8.9333,36.1333,71.82,50,22,3.58,TZ,few clouds,2022-10-04 22:57:35
589,Karata,42.5949,46.3393,55.8,55,25,5.1,RU,scattered clouds,2022-10-04 22:57:36
590,Mundo Nuevo,18.7,-95.5,80.02,76,11,8.48,MX,few clouds,2022-10-04 22:57:36
591,Angoche,-16.2325,39.9086,72.05,79,0,9.04,MZ,clear sky,2022-10-04 22:57:37
592,Tukrah,32.5341,20.5791,74.05,68,6,16.06,LY,clear sky,2022-10-04 22:57:37
593,Isangel,-19.55,169.2667,77.11,78,40,6.91,VU,scattered clouds,2022-10-04 22:57:37
594,Jalu,29.0331,21.5482,72.39,62,0,10.27,LY,clear sky,2022-10-04 22:57:38
595,Rubtsovsk,51.5,81.25,33.33,63,19,3.96,RU,few clouds,2022-10-04 22:57:38
596,Ribeira Grande,38.5167,-28.7,71.85,79,79,7.36,PT,broken clouds,2022-10-04 22:57:22
597,Pastavy,55.1168,26.8326,41.47,95,57,9.46,BY,broken clouds,2022-10-04 22:57:38
598,Tecoanapa,16.5167,-98.75,83.39,71,16,7.92,MX,few clouds,2022-10-04 22:57:39
599,Mokrousovo,55.8103,66.7653,44.38,58,73,8.37,RU,broken clouds,2022-10-04 22:57:39
600,Riohacha,11.5444,-72.9072,87.91,79,20,9.22,CO,few clouds,2022-10-04 22:56:22
601,Sangar,63.9242,127.4739,20.5,78,21,8.12,RU,few clouds,2022-10-04 22:57:40
602,Balad,34.0164,44.1453,84.33,15,0,9.73,IQ,clear sky,2022-10-04 22:57:40
603,Ola,59.5833,151.2833,28.15,72,100,15.3,RU,overcast clouds,2022-10-04 22:57:40
604,Partyzany,46.3314,34.7503,52.75,58,0,6.44,UA,clear sky,2022-10-04 22:57:41
605,San Francisco,37.7749,-122.4194,85.75,79,20,21.85,US,few clouds,2022-10-04 22:53:54
606,Sassandra,4.95,-6.0833,74.66,95,97,5.44,CI,overcast clouds,2022-10-04 22:57:42
607,Kiruna,67.8557,20.2251,40.12,93,100,12.66,SE,light rain,2022-10-04 22:57:42
608,Onega,63.9061,38.1404,45.84,96,89,8.55,RU,overcast clouds,2022-10-04 22:57:42
609,Natal,-5.795,-35.2094,80.82,74,0,8.05,BR,clear sky,2022-10-04 22:55:24
610,Hasaki,35.7333,140.8333,75.6,82,90,24.99,JP,overcast clouds,2022-10-04 22:57:43
611,Mombasa,-4.0547,39.6636,72.88,89,57,7.87,KE,broken clouds,2022-10-04 22:55:01
612,Gap,44.6667,6.0,42.84,76,2,3.27,FR,clear sky,2022-10-04 22:57:43
613,Eydhafushi,5.1033,73.0708,81.61,78,100,17.76,MV,overcast clouds,2022-10-04 22:57:44
614,Paldiski,59.3567,24.0531,39.45,100,20,3.44,EE,fog,2022-10-04 22:57:44
615,Puerto Leguizamo,-0.1934,-74.7819,80.67,65,96,1.9,CO,overcast clouds,2022-10-04 22:57:44
616,Felipe Carrillo Puerto,19.5833,-88.05,81.79,66,73,4.23,MX,broken clouds,2022-10-04 22:57:45
617,Rafai,4.95,23.9167,68.43,99,93,1.05,CF,overcast clouds,2022-10-04 22:57:45
618,Saldanha,-33.0117,17.9442,48.25,67,1,12.8,ZA,clear sky,2022-10-04 22:57:46
619,Krasavino,60.9614,46.4814,49.84,82,95,8.75,RU,overcast clouds,2022-10-04 22:57:46
620,Miranda,3.2499,-76.2281,73.53,90,91,4.94,CO,moderate rain,2022-10-04 22:57:46
621,Eyl,7.9803,49.8164,76.98,81,95,13.49,SO,overcast clouds,2022-10-04 22:57:47
622,Gondanglegi,-7.7479,112.0132,75.87,84,87,10.27,ID,overcast clouds,2022-10-04 22:57:47
623,Searcy,35.2506,-91.7363,78.12,34,0,5.57,US,clear sky,2022-10-04 22:56:13
624,Kpandu,6.9954,0.2931,74.44,91,80,4.68,GH,broken clouds,2022-10-04 22:57:48
625,Manicore,-5.8092,-61.3003,87.75,66,0,2.3,BR,clear sky,2022-10-04 22:57:48
626,Cortez,37.3489,-108.5859,65.16,48,100,6.91,US,thunderstorm,2022-10-04 22:57:48
627,Takoradi,4.8845,-1.7554,75.45,93,97,5.99,GH,overcast clouds,2022-10-04 22:57:49
628,Matay,28.419,30.7792,74.66,52,0,10.11,EG,clear sky,2022-10-04 22:57:49
629,Carlyle,38.6103,-89.3726,73.8,33,4,5.97,US,clear sky,2022-10-04 22:57:50
630,Voh,-20.9667,164.7,77.58,48,3,6.96,NC,clear sky,2022-10-04 22:57:50
631,Santa Isabel,-23.3156,-46.2214,65.5,94,96,3.69,BR,overcast clouds,2022-10-04 22:57:50
632,Constitucion,-35.3333,-72.4167,52.79,85,95,2.89,CL,light rain,2022-10-04 22:57:51
633,Arlit,18.7369,7.3853,92.28,14,4,11.61,NE,clear sky,2022-10-04 22:57:51
634,Marzuq,14.4,46.4667,73.38,50,33,3.87,YE,scattered clouds,2022-10-04 22:57:51
635,Mae Sot,16.7167,98.5667,76.42,100,20,0.0,TH,few clouds,2022-10-04 22:57:52
636,Miraflores,19.2167,-98.8083,66.87,79,84,4.68,MX,broken clouds,2022-10-04 22:57:52
637,Doctor Juan Leon Mallorquin,-25.4,-55.2667,73.13,75,0,3.56,PY,clear sky,2022-10-04 22:57:52
638,Esil,51.9556,66.4042,41.95,37,22,4.88,KZ,few clouds,2022-10-04 22:57:53
639,Biltine,14.5333,20.9167,85.46,38,18,3.47,TD,few clouds,2022-10-04 22:57:53
640,Slavyanka,42.8633,131.3847,41.41,44,0,8.03,RU,clear sky,2022-10-04 22:57:54
641,Upata,8.0086,-62.3989,74.03,88,85,2.93,VE,overcast clouds,2022-10-04 22:57:54
642,Fayaoue,-20.65,166.5333,72.84,62,1,15.88,NC,clear sky,2022-10-04 22:57:54
643,Erdenet,49.0333,104.0833,22.96,51,0,3.31,MN,clear sky,2022-10-04 22:57:55
644,Maebaru,33.55,130.2,71.76,88,99,11.41,JP,overcast clouds,2022-10-04 22:57:55
645,Aranos,-24.1333,19.1167,69.33,15,23,3.96,NA,few clouds,2022-10-04 22:57:55
646,Bloomfield,40.8068,-74.1854,55.98,93,100,17.27,US,mist,2022-10-04 22:54:30
647,Le Vauclin,14.5452,-60.8388,80.85,94,75,16.11,MQ,broken clouds,2022-10-04 22:57:56
648,Dalbandin,28.8947,64.4101,72.14,12,0,2.51,PK,clear sky,2022-10-04 22:57:56
649,Ust-Kuyga,70.0167,135.6,21.13,92,100,4.38,RU,overcast clouds,2022-10-04 22:57:57
650,Vestmanna,62.1564,-7.1664,45.52,87,100,19.57,FO,drizzle rain,2022-10-04 22:57:57
651,Libenge,3.65,18.6333,70.18,97,82,0.96,CD,broken clouds,2022-10-04 22:57:57
652,Fairview,40.8126,-73.999,56.46,90,100,17.27,US,mist,2022-10-04 22:57:58
653,Bagdarin,54.4333,113.6,17.31,79,9,3.74,RU,clear sky,2022-10-04 22:57:58
654,Kamiiso,41.8167,140.65,52.18,76,75,6.91,JP,broken clouds,2022-10-04 22:57:58
655,Batagay-Alyta,67.8006,130.4114,12.81,83,95,2.77,RU,overcast clouds,2022-10-04 22:57:59
656,Walvis Bay,-22.9575,14.5053,55.09,82,0,9.22,NA,clear sky,2022-10-04 22:57:59
657,Savinskiy,62.9342,40.1361,46.89,96,100,5.41,RU,overcast clouds,2022-10-04 22:58:00
658,Haimen,23.1935,116.6142,78.69,87,28,15.73,CN,scattered clouds,2022-10-04 22:58:00
659,Maiduguri,11.8464,13.1603,78.6,70,85,7.25,NG,overcast clouds,2022-10-04 22:58:00
660,Nara,34.6851,135.8049,69.12,89,100,6.46,JP,overcast clouds,2022-10-04 22:58:01
661,Sambava,-14.2667,50.1667,67.51,85,41,9.48,MG,scattered clouds,2022-10-04 22:58:01
662,Winnemucca,40.973,-117.7357,80.65,16,0,5.03,US,clear sky,2022-10-04 22:54:00
663,Batie,9.8833,-2.9167,77.25,82,91,4.41,BF,overcast clouds,2022-10-04 22:58:01
664,Palauig,15.435,119.9045,81.75,76,99,3.94,PH,overcast clouds,2022-10-04 22:58:02
665,Iberia,29.9502,-91.7507,80.58,64,100,4.05,US,overcast clouds,2022-10-04 22:58:02
666,Ahar,38.4774,47.0699,60.15,24,0,3.51,IR,clear sky,2022-10-04 22:58:03
667,Asyut,27.181,31.1837,75.38,40,0,6.49,EG,clear sky,2022-10-04 22:58:03
668,Deoli,25.75,75.3833,78.98,51,68,5.01,IN,broken clouds,2022-10-04 22:58:03
669,Gotsu,35.0,132.2167,65.25,87,100,15.41,JP,overcast clouds,2022-10-04 22:58:04
670,Saint-Nazaire,47.2833,-2.2,60.78,91,100,4.61,FR,overcast clouds,2022-10-04 22:58:04
671,Uruzgan,32.8333,66.0,59.27,16,0,4.14,AF,clear sky,2022-10-04 22:58:04
672,Paramonga,-10.6667,-77.8333,61.47,82,31,11.25,PE,scattered clouds,2022-10-04 22:58:05
673,Msanga,-6.05,36.0333,65.21,63,12,8.05,TZ,few clouds,2022-10-04 22:58:05
674,Yinchuan,38.4681,106.2731,49.73,38,100,9.6,CN,overcast clouds,2022-10-04 22:58:06
675,Hay River,60.8156,-115.7999,44.58,70,75,13.8,CA,broken clouds,2022-10-04 22:58:06
676,Port Blair,11.6667,92.75,80.64,83,75,2.3,IN,mist,2022-10-04 22:58:07
677,Lasa,46.6166,10.7002,39.69,48,10,1.48,IT,clear sky,2022-10-04 22:58:07
678,Mandiana,10.6333,-8.6833,77.77,81,86,2.06,GN,light rain,2022-10-04 22:58:07
679,Novaya Igirma,57.1334,103.9112,22.71,95,25,2.68,RU,scattered clouds,2022-10-04 22:58:09
680,Charcas,23.1333,-101.1167,64.87,59,79,6.31,MX,broken clouds,2022-10-04 22:58:09
681,Porto Velho,-8.7619,-63.9039,80.65,78,0,1.14,BR,clear sky,2022-10-04 22:55:53
682,Sakassou,7.4546,-5.2926,78.64,95,89,4.34,CI,light rain,2022-10-04 22:58:10
683,Show Low,34.2542,-110.0298,62.89,62,0,0.0,US,clear sky,2022-10-04 22:53:58
684,Hope,33.6671,-93.5916,82.08,32,0,3.91,US,clear sky,2022-10-04 22:58:10
685,Xinpu,34.5997,119.1594,54.01,62,99,12.64,CN,overcast clouds,2022-10-04 22:58:11
686,Flagstaff,35.1981,-111.6513,66.0,46,31,1.99,US,scattered clouds,2022-10-04 22:58:11
687,Amahai,-3.3333,128.9167,80.08,82,100,2.06,ID,overcast clouds,2022-10-04 22:58:12
688,Kaeo,-35.1,173.7833,64.33,72,74,11.3,NZ,broken clouds,2022-10-04 22:58:12
689,Zhigansk,66.7697,123.3711,22.77,83,100,4.5,RU,overcast clouds,2022-10-04 22:58:12
690,Conselheiro Lafaiete,-20.6603,-43.7861,61.92,91,100,2.86,BR,light rain,2022-10-04 22:58:13
691,Bermeo,43.4209,-2.7215,67.24,84,0,3.94,ES,clear sky,2022-10-04 22:58:13
692,Amot,59.5714,7.9877,50.76,98,100,4.14,NO,overcast clouds,2022-10-04 22:58:13
693,Stende,57.15,22.5333,45.05,95,50,5.28,LV,scattered clouds,2022-10-04 22:56:18
694,Dabhol,17.6,73.1667,76.01,92,92,7.49,IN,overcast clouds,2022-10-04 22:58:14
695,Kailua,21.4022,-157.7394,86.02,77,75,11.5,US,moderate rain,2022-10-04 22:58:14
696,Alta Floresta,-9.8756,-56.0861,74.88,78,80,3.56,BR,broken clouds,2022-10-04 22:58:15
697,Panzhihua,26.5851,101.7128,68.16,91,81,1.63,CN,broken clouds,2022-10-04 22:58:15
698,Strai,58.2,7.9,56.1,92,100,14.97,NO,overcast clouds,2022-10-04 22:58:15
